[
  {
    "id": "producer_1023",
    "sourceId": "1023",
    "name": "Private Weissbierbrauerei G. Schneider & Sohn GmbH",
    "type": "producer",
    "address": "Emil-Ott-Strasse 1-5",
    "city": "Kelheim",
    "state": "",
    "postalCode": "93309",
    "country": "Germany",
    "phone": "0 94 41 / 7 05 - 0",
    "website": "http://www.schneider-weisse.de",
    "description": "",
    "latitude": 48.91749954223633,
    "longitude": 11.873499870300293
  },
  {
    "id": "producer_1047",
    "sourceId": "1047",
    "name": "Red Lodge Ales",
    "type": "producer",
    "address": "417 North Broadway",
    "city": "Red Lodge",
    "state": "Montana",
    "postalCode": "59068",
    "country": "United States",
    "phone": "1-406-446-4607",
    "website": "",
    "description": "",
    "latitude": 45.19129943847656,
    "longitude": -109.24700164794922
  },
  {
    "id": "producer_1056",
    "sourceId": "1056",
    "name": "Ridgeway Brewing",
    "type": "producer",
    "address": "6 Chapel Close",
    "city": "South Stoke",
    "state": "Oxford",
    "postalCode": "",
    "country": "United Kingdom",
    "phone": "44-(01491)-873474",
    "website": "",
    "description": "",
    "latitude": 51.546199798583984,
    "longitude": -1.1354999542236328
  },
  {
    "id": "producer_1064",
    "sourceId": "1064",
    "name": "Rock Bottom Restaurant & Brewery - Denver",
    "type": "venue",
    "address": "1001 16th Street #A-100",
    "city": "Denver",
    "state": "Colorado",
    "postalCode": "80202",
    "country": "United States",
    "phone": "1-303-534-7616",
    "website": "",
    "description": "",
    "latitude": 39.74720001220703,
    "longitude": -104.99500274658203
  },
  {
    "id": "producer_1075",
    "sourceId": "1075",
    "name": "Roots Organic Brewing",
    "type": "producer",
    "address": "1520 SE Seventh Avenue",
    "city": "Portland",
    "state": "Oregon",
    "postalCode": "97214",
    "country": "United States",
    "phone": "1-503-235-7668",
    "website": "",
    "description": "",
    "latitude": 45.51179885864258,
    "longitude": -122.65899658203125
  },
  {
    "id": "producer_1084",
    "sourceId": "1084",
    "name": "Rush River Brewing",
    "type": "producer",
    "address": "990 Antler Court",
    "city": "River Falls",
    "state": "Wisconsin",
    "postalCode": "54022",
    "country": "United States",
    "phone": "1-715-426-2054",
    "website": "",
    "description": "",
    "latitude": 44.890201568603516,
    "longitude": -92.63780212402344
  },
  {
    "id": "producer_1099",
    "sourceId": "1099",
    "name": "Samuel Smith Old Brewery (Tadcaster)",
    "type": "producer",
    "address": "High Street",
    "city": "Tadcaster",
    "state": "North Yorkshire",
    "postalCode": "",
    "country": "United Kingdom",
    "phone": "44-(01937)-839201",
    "website": "",
    "description": "",
    "latitude": 53.883399963378906,
    "longitude": -1.2625000476837158
  },
  {
    "id": "producer_1136",
    "sourceId": "1136",
    "name": "Shipyard Brewing - Portland",
    "type": "producer",
    "address": "86 Newbury Street",
    "city": "Portland",
    "state": "Maine",
    "postalCode": "4101",
    "country": "United States",
    "phone": "1-800-789-0684",
    "website": "http://www.shipyard.com/",
    "description": "Since 1994, Shipyard Brewing Company has been brewing fine quality products with a wide range of style profiles. We use only top quality ingredients and pride ourselves on the consistency and freshness of our products. All our beer is hand crafted from recipes developed by master brewer Alan Pugsley, one of the most influential people in the craft brewing movement in North America.  Shipyard is available in 35+ states around the country and markets for our freshly brewed, hand-crafted beers continue to expand.",
    "latitude": 43.66189956665039,
    "longitude": -70.2489013671875
  },
  {
    "id": "producer_1142",
    "sourceId": "1142",
    "name": "Sierra Nevada Brewing Co.",
    "type": "producer",
    "address": "1075 East 20th Street",
    "city": "Chico",
    "state": "California",
    "postalCode": "95928",
    "country": "United States",
    "phone": "1-530-893-3520",
    "website": "http://www.sierranevada.com/",
    "description": "",
    "latitude": 39.72460174560547,
    "longitude": -121.81600189208984
  },
  {
    "id": "producer_1151",
    "sourceId": "1151",
    "name": "Skagit River Brewing",
    "type": "producer",
    "address": "404 South Third Street",
    "city": "Mount Vernon",
    "state": "Washington",
    "postalCode": "98273",
    "country": "United States",
    "phone": "1-360-336-2884",
    "website": "",
    "description": "",
    "latitude": 48.4192008972168,
    "longitude": -122.33499908447266
  },
  {
    "id": "producer_1175",
    "sourceId": "1175",
    "name": "Spanish Peaks Brewing",
    "type": "producer",
    "address": "Polson MT 59860",
    "city": "Polson",
    "state": "Montana",
    "postalCode": "",
    "country": "United States",
    "phone": "",
    "website": "http://www.blackdogales.com/",
    "description": "",
    "latitude": 47.695899963378906,
    "longitude": -114.1760025024414
  },
  {
    "id": "producer_1185",
    "sourceId": "1185",
    "name": "St Peter's Brewery",
    "type": "producer",
    "address": "St Peter's Hall",
    "city": "Bungay",
    "state": "Suffolk",
    "postalCode": "",
    "country": "United Kingdom",
    "phone": "44-(01986)-782322",
    "website": "",
    "description": "",
    "latitude": 36.72819900512695,
    "longitude": -76.58360290527344
  },
  {
    "id": "producer_1202",
    "sourceId": "1202",
    "name": "Stieglbrauerei zu Salzburg GmbH",
    "type": "producer",
    "address": "Kendlerstra\u00dfe 1",
    "city": "Salzburg",
    "state": "",
    "postalCode": "",
    "country": "Austria",
    "phone": "43-0-662-/-83-87-0",
    "website": "http://www.stieglbrauerei.at/",
    "description": "",
    "latitude": 47.800498962402344,
    "longitude": 13.044400215148926
  },
  {
    "id": "producer_1220",
    "sourceId": "1220",
    "name": "Summit Brewing",
    "type": "producer",
    "address": "910 Montreal Circle",
    "city": "Saint Paul",
    "state": "Minnesota",
    "postalCode": "55102",
    "country": "United States",
    "phone": "1-651-265-7800",
    "website": "http://www.summitbrewing.com/",
    "description": "",
    "latitude": 44.91389846801758,
    "longitude": -93.13960266113281
  },
  {
    "id": "producer_1221",
    "sourceId": "1221",
    "name": "Surly Brewing",
    "type": "producer",
    "address": "4811 Dusharme Drive",
    "city": "Brooklyn Center",
    "state": "Minnesota",
    "postalCode": "55429",
    "country": "United States",
    "phone": "1-763-535-3330",
    "website": "http://www.surlybrewing.com/",
    "description": "",
    "latitude": 45.04290008544922,
    "longitude": -93.32460021972656
  },
  {
    "id": "producer_1260",
    "sourceId": "1260",
    "name": "Three Floyds Brewing",
    "type": "producer",
    "address": "9750 Indiana Parkway",
    "city": "Munster",
    "state": "Indiana",
    "postalCode": "46321",
    "country": "United States",
    "phone": "1-219-922-3565",
    "website": "http://www.threefloydspub.com/",
    "description": "",
    "latitude": 41.535400390625,
    "longitude": -87.51580047607422
  },
  {
    "id": "producer_1264",
    "sourceId": "1264",
    "name": "Thunderhead Brewery #2",
    "type": "producer",
    "address": "120 East Third Street",
    "city": "Grand Island",
    "state": "Nebraska",
    "postalCode": "68801",
    "country": "United States",
    "phone": "1-308-398-2500",
    "website": "",
    "description": "",
    "latitude": 40.925899505615234,
    "longitude": -98.3396987915039
  },
  {
    "id": "producer_1271",
    "sourceId": "1271",
    "name": "Tommyknocker Brewery and Pub",
    "type": "venue",
    "address": "1401 Miner Street",
    "city": "Idaho Springs",
    "state": "Colorado",
    "postalCode": "80452",
    "country": "United States",
    "phone": "1-303-567-2688",
    "website": "http://www.tommyknocker.com/",
    "description": "",
    "latitude": 39.741798400878906,
    "longitude": -105.51799774169922
  },
  {
    "id": "producer_1307",
    "sourceId": "1307",
    "name": "Unibroue",
    "type": "producer",
    "address": "80 Des Carrires",
    "city": "Chambly",
    "state": "Quebec",
    "postalCode": "",
    "country": "Canada",
    "phone": "1-450-658-7658",
    "website": "http://www.unibroue.com",
    "description": "There is more to certain beers than simple refreshment. Unibroue has raised the standards of conventional beer in by brewing craftsman beers for savouring.  Of incomparable quality and a taste, the beers at Unibroue are entirely natural, contain no chemical additives or preservatives, and are made with first quality ingredients.  Rediscover beer with Unibroue. You will never taste beer the same way again!",
    "latitude": 45.44160079956055,
    "longitude": -73.2594985961914
  },
  {
    "id": "producer_1385",
    "sourceId": "1385",
    "name": "Youngs & Company Brewery",
    "type": "producer",
    "address": "26 Osiers Road",
    "city": "London",
    "state": "",
    "postalCode": "SW18 1NH",
    "country": "England",
    "phone": "020 8875 7000",
    "website": "http://www.youngs.co.uk",
    "description": "",
    "latitude": 51.46110153198242,
    "longitude": -0.19660000503063202
  },
  {
    "id": "producer_160",
    "sourceId": "160",
    "name": "Boulder Beer Company",
    "type": "producer",
    "address": "2880 Wilderness Place",
    "city": "Boulder",
    "state": "Colorado",
    "postalCode": "80301",
    "country": "United States",
    "phone": "1-303-444-8448",
    "website": "http://boulderbeer.com/",
    "description": "",
    "latitude": 40.02669906616211,
    "longitude": -105.24800109863281
  },
  {
    "id": "producer_161",
    "sourceId": "161",
    "name": "Boulevard Brewing Company",
    "type": "producer",
    "address": "2501 Southwest Boulevard",
    "city": "Kansas City",
    "state": "Missouri",
    "postalCode": "64108",
    "country": "United States",
    "phone": "1-816-474-7095",
    "website": "http://www.blvdbeer.com/",
    "description": "",
    "latitude": 39.08209991455078,
    "longitude": -94.59649658203125
  },
  {
    "id": "producer_170",
    "sourceId": "170",
    "name": "Brasserie de Blaugies",
    "type": "producer",
    "address": "Rue de la Frontire, 435",
    "city": "Blaugies",
    "state": "Hainaut",
    "postalCode": "",
    "country": "Belgium",
    "phone": "32-065-65-03-60",
    "website": "",
    "description": "",
    "latitude": 50.369300842285156,
    "longitude": 3.8269999027252197
  },
  {
    "id": "producer_176",
    "sourceId": "176",
    "name": "Brasserie de la Senne",
    "type": "producer",
    "address": "Victor Nonnemansstraat 40a",
    "city": "Sint-Pieters-Leeuw",
    "state": "Vlaams Brabant",
    "postalCode": "",
    "country": "Belgium",
    "phone": "32-0497-/-93.23.75",
    "website": "",
    "description": "",
    "latitude": 50.785301208496094,
    "longitude": 4.24370002746582
  },
  {
    "id": "producer_202",
    "sourceId": "202",
    "name": "Brasserie-Brouwerij Cantillon",
    "type": "producer",
    "address": "Gheudestraat 56",
    "city": "Anderlecht",
    "state": "Brussel",
    "postalCode": "",
    "country": "Belgium",
    "phone": "32-(0)2-521-49-28",
    "website": "http://www.cantillon.be/",
    "description": "",
    "latitude": 50.84159851074219,
    "longitude": 4.3354997634887695
  },
  {
    "id": "producer_210",
    "sourceId": "210",
    "name": "Brauerei Grieskirchen AG",
    "type": "producer",
    "address": "Stadtplatz 14",
    "city": "Grieskirchen",
    "state": "",
    "postalCode": "",
    "country": "Austria",
    "phone": "43-0-72-48/607-0",
    "website": "",
    "description": "",
    "latitude": 48.23509979248047,
    "longitude": 13.82919979095459
  },
  {
    "id": "producer_236",
    "sourceId": "236",
    "name": "Breckenridge Brewery",
    "type": "producer",
    "address": "471 Kalamath Street",
    "city": "Denver",
    "state": "Colorado",
    "postalCode": "80204",
    "country": "United States",
    "phone": "303-623-2739",
    "website": "http://www.breckbrew.com/",
    "description": "",
    "latitude": 39.72359848022461,
    "longitude": -105.0009994506836
  },
  {
    "id": "producer_255",
    "sourceId": "255",
    "name": "BridgePort Brewing",
    "type": "producer",
    "address": "1313 NW Marshall Street",
    "city": "Portland",
    "state": "Oregon",
    "postalCode": "97209",
    "country": "United States",
    "phone": "1-503-241-7179",
    "website": "http://www.bridgeportbrew.com/",
    "description": "",
    "latitude": 45.53110122680664,
    "longitude": -122.68499755859375
  },
  {
    "id": "producer_266",
    "sourceId": "266",
    "name": "Brouwerij Bavik - De Brabandere",
    "type": "producer",
    "address": "Rijksweg 33",
    "city": "Bavikhove",
    "state": "West-Vlaanderen",
    "postalCode": "",
    "country": "Belgium",
    "phone": "32-56-71-13-79",
    "website": "",
    "description": "",
    "latitude": 50.86280059814453,
    "longitude": 3.2992000579833984
  },
  {
    "id": "producer_304",
    "sourceId": "304",
    "name": "Brouwerij Van Steenberge",
    "type": "producer",
    "address": "Lindenlaan 25",
    "city": "Ertvelde",
    "state": "Oost-Vlaanderen",
    "postalCode": "",
    "country": "Belgium",
    "phone": "32-09-344-50-71",
    "website": "",
    "description": "",
    "latitude": 51.17660140991211,
    "longitude": 3.7462000846862793
  },
  {
    "id": "producer_307",
    "sourceId": "307",
    "name": "Browar Okocim",
    "type": "producer",
    "address": "ul. Browarna 14",
    "city": "Brzesko",
    "state": "",
    "postalCode": "",
    "country": "Poland",
    "phone": "48-0146865000",
    "website": "http://www.okocim.pl/",
    "description": "",
    "latitude": 49.96220016479492,
    "longitude": 20.600299835205078
  },
  {
    "id": "producer_31",
    "sourceId": "31",
    "name": "Alvinne Picobrouwerij",
    "type": "venue",
    "address": "Oostrozebekestraat 114",
    "city": "Ingelmunster",
    "state": "West-Vlaanderen",
    "postalCode": "",
    "country": "Belgium",
    "phone": "32-051-/-30-55-17",
    "website": "",
    "description": "",
    "latitude": 50.91899871826172,
    "longitude": 3.263200044631958
  },
  {
    "id": "producer_345",
    "sourceId": "345",
    "name": "Carlsberg Sverige AB",
    "type": "producer",
    "address": "rstadvgen",
    "city": "Falkenberg",
    "state": "",
    "postalCode": "",
    "country": "Sweden",
    "phone": "46-08-757-70-00",
    "website": "",
    "description": "",
    "latitude": 56.90019989013672,
    "longitude": 12.540499687194824
  },
  {
    "id": "producer_369",
    "sourceId": "369",
    "name": "Cervejaria Sudbrack",
    "type": "producer",
    "address": "Rua Bahia, 5181",
    "city": "Blumenau",
    "state": "Santa Catarina",
    "postalCode": "",
    "country": "Brazil",
    "phone": "55-(47)-3488-7371",
    "website": "http://www.eisenbahn.com.br/",
    "description": "",
    "latitude": -26.891399383544922,
    "longitude": -49.12229919433594
  },
  {
    "id": "producer_39",
    "sourceId": "39",
    "name": "Anchor Brewing",
    "type": "producer",
    "address": "1705 Mariposa Street",
    "city": "San Francisco",
    "state": "California",
    "postalCode": "94107",
    "country": "United States",
    "phone": "1-415-863-8350",
    "website": "",
    "description": "",
    "latitude": 37.76350021362305,
    "longitude": -122.4010009765625
  },
  {
    "id": "producer_397",
    "sourceId": "397",
    "name": "Coopers Brewery",
    "type": "producer",
    "address": "461 South Road",
    "city": "Regency Park",
    "state": "South Australia",
    "postalCode": "",
    "country": "Australia",
    "phone": "61-(08)-8440-1800",
    "website": "http://www.coopers.com.au/",
    "description": "Coopers Brewery produce a range of Ales,Stouts and Lagers.   Our ale range is brewed by a method of top fermentation, originating in the Middle Ages.  Coopers uses only natural ingredients including malt, hops, sugar, water and a special yeast strain that's over 90 years old.  Coopers do not use preservatives or chemicals in their ale range.   Coopers also produce Stout and Lager beers.  The Lager beers are bottom fermented in cooler conditions, matured for a short period and pasteurised.",
    "latitude": -34.87269973754883,
    "longitude": 138.572998046875
  },
  {
    "id": "producer_441",
    "sourceId": "441",
    "name": "Deschutes Brewery",
    "type": "producer",
    "address": "901 SW Simpson Avenue",
    "city": "Bend",
    "state": "Oregon",
    "postalCode": "97702",
    "country": "United States",
    "phone": "1-541-385-8606",
    "website": "http://www.deschutesbrewery.com/",
    "description": "Deschutes Brewery, located in Central Oregon along the banks of the wild and scenic Deschutes River, has brewed handcrafted traditional ales since 1988.  Starting out as a small brewpub in the heart of downtown Bend, Deschutes' first beers were Black Butte Porter, Bachelor Bitter and Cascade Golden Ale. In 1993, Deschutes moved into its current brewing facility and has continued expanding and improving the facilities.  With a 50-barrel traditional gravity brew house and a new one-of-a-kind 131-barrel Huppmann brew system from Germany, Deschutes now creates and experiments with specialty batches of limited beers while brewing large quantities of everyone's favorites like Mirror Pond Pale Ale.  Consistently producing the highest quality beers is always Deschutes' number one priority and commitment. The Deschutes Brewery & Public House continues brewing unique beers at our original location while serving the finest Northwest pub cuisine.  So when you find yourself in Bend, come on in and have a pint of Bachelor Bitter, the locals' favorite, or any of our other original ales brewed on-site. Deschutes Brewery's distinct ales; Black Butte Porter, Mirror Pond Pale Ale, Obsidian Stout, Inversion IPA, Bachelor ESB, Cascade Ale, Buzzsaw Brown (winter), Cinder Cone Red (spring), Twilight Ale (summer), Jubelale (fall) and other seasonal beers are available at pubs and markets in a neighborhood near you. --http://www.deschutesbrewery.com/About+Us/default.aspx",
    "latitude": 44.047401428222656,
    "longitude": -121.322998046875
  },
  {
    "id": "producer_447",
    "sourceId": "447",
    "name": "Dick's Brewing",
    "type": "producer",
    "address": "5945 Prather Road",
    "city": "Centralia",
    "state": "Washington",
    "postalCode": "98531",
    "country": "United States",
    "phone": "1-800-586-7760",
    "website": "",
    "description": "",
    "latitude": 46.77130126953125,
    "longitude": -123.00700378417969
  },
  {
    "id": "producer_481",
    "sourceId": "481",
    "name": "Eel River Brewing",
    "type": "producer",
    "address": "1777 Alamar Way",
    "city": "Fortuna",
    "state": "California",
    "postalCode": "95540",
    "country": "United States",
    "phone": "1-707-725-2739",
    "website": "http://eelriverbrewing.com/",
    "description": "",
    "latitude": 40.57929992675781,
    "longitude": -124.15299987792969
  },
  {
    "id": "producer_483",
    "sourceId": "483",
    "name": "Egan Brewing",
    "type": "producer",
    "address": "",
    "city": "De Pere",
    "state": "Wisconsin",
    "postalCode": "",
    "country": "United States",
    "phone": "",
    "website": "",
    "description": "",
    "latitude": 44.44889831542969,
    "longitude": -88.0604019165039
  },
  {
    "id": "producer_545",
    "sourceId": "545",
    "name": "Fort Collins Brewery",
    "type": "producer",
    "address": "1900-B East Lincoln Avenue",
    "city": "Fort Collins",
    "state": "Colorado",
    "postalCode": "80524",
    "country": "United States",
    "phone": "1-970-472-1499",
    "website": "http://www.fortcollinsbrewery.com",
    "description": "",
    "latitude": 40.58319854736328,
    "longitude": -105.04199981689453
  },
  {
    "id": "producer_562",
    "sourceId": "562",
    "name": "Full Sail Brewing #1",
    "type": "producer",
    "address": "506 Columbia Street",
    "city": "Hood River",
    "state": "Oregon",
    "postalCode": "97031",
    "country": "United States",
    "phone": "1-541-386-2281",
    "website": "",
    "description": "",
    "latitude": 45.71030044555664,
    "longitude": -121.51499938964844
  },
  {
    "id": "producer_584",
    "sourceId": "584",
    "name": "Golden Valley Brewery and Pub",
    "type": "venue",
    "address": "980 NE Fourth Street",
    "city": "McMinnville",
    "state": "Oregon",
    "postalCode": "97128",
    "country": "United States",
    "phone": "1-503-472-2739",
    "website": "http://www.goldenvalleybrewery.com/",
    "description": "",
    "latitude": 45.21039962768555,
    "longitude": -123.18900299072266
  },
  {
    "id": "producer_595",
    "sourceId": "595",
    "name": "Granite City Food & Brewery - Omaha",
    "type": "producer",
    "address": "1001 North 102nd Street",
    "city": "Omaha",
    "state": "Nebraska",
    "postalCode": "68114",
    "country": "United States",
    "phone": "1-402-393-5000",
    "website": "",
    "description": "",
    "latitude": 41.2672004699707,
    "longitude": -96.07140350341797
  },
  {
    "id": "producer_62",
    "sourceId": "62",
    "name": "Avery Brewing Company",
    "type": "producer",
    "address": "5763 Arapahoe Avenue",
    "city": "Boulder",
    "state": "Colorado",
    "postalCode": "80303",
    "country": "United States",
    "phone": "1-877-844-5679",
    "website": "http://www.averybrewing.com/",
    "description": "Established in 1993, Avery Brewing Co. is a family owned and operated micro-brewery dedicated to brewing the finest quality English and Belgian style ales.. From humble beginnings, brewing 800 barrels of three different beers in 1994, we have progressed to brewing 13,000 barrels of twenty different beers in 2007. We attribute this success to beer drinkers gravitating to beers with more interesting flavor profiles. The unique flavor complexity of Avery beers occurs through a combination of sparing no expense with regard to ingredients and our hopping methods. Sparing no expense means using lots of specialty malts, imported hops, such as Styrian Goldings, and imported Belgian candy sugar.",
    "latitude": 40.0166015625,
    "longitude": -105.21900177001953
  },
  {
    "id": "producer_622",
    "sourceId": "622",
    "name": "Hair of the Dog Brewing",
    "type": "producer",
    "address": "4509 SE 23rd Avenue",
    "city": "Portland",
    "state": "Oregon",
    "postalCode": "97202",
    "country": "United States",
    "phone": "1-503-232-6585",
    "website": "",
    "description": "",
    "latitude": 45.4901008605957,
    "longitude": -122.64299774169922
  },
  {
    "id": "producer_623",
    "sourceId": "623",
    "name": "Hale's Ales #3",
    "type": "producer",
    "address": "4301 Leary Way NW",
    "city": "Seattle",
    "state": "Washington",
    "postalCode": "98107",
    "country": "United States",
    "phone": "1-206-706-1544",
    "website": "",
    "description": "",
    "latitude": 47.65919876098633,
    "longitude": -122.36599731445312
  },
  {
    "id": "producer_670",
    "sourceId": "670",
    "name": "Hook Norton Brewery",
    "type": "producer",
    "address": "Brewery Lane",
    "city": "Hook Norton",
    "state": "Oxford",
    "postalCode": "",
    "country": "United Kingdom",
    "phone": "44-(01608)-730384",
    "website": "",
    "description": "",
    "latitude": 51.99660110473633,
    "longitude": -1.4922000169754028
  },
  {
    "id": "producer_723",
    "sourceId": "723",
    "name": "Jolly Pumpkin Artisan Ales",
    "type": "producer",
    "address": "3115 Broad Street",
    "city": "Dexter",
    "state": "Michigan",
    "postalCode": "48130",
    "country": "United States",
    "phone": "1-734-426-4962",
    "website": "http://www.jollypumpkin.com",
    "description": "Welcome to a land of open fermentation, oak barrel aging, and bottle conditioning. At Jolly Pumpkin Artisan Ales we are dedicated to more than the traditions of old world craftsmanship. Everything we do is designed to create ales of outstanding art and flavor. Focusing on traditional rustic country style beers brought to life through labor and love, we strive to create beers to lighten the spirit, and soothe the soul. Sharing our joy to the betterment of mankind is the most that we could hope for.",
    "latitude": 42.337501525878906,
    "longitude": -83.8895034790039
  },
  {
    "id": "producer_727",
    "sourceId": "727",
    "name": "JW Lees and Co (Brewers) Ltd.",
    "type": "producer",
    "address": "Middleton Junction",
    "city": "Manchester",
    "state": "Manchester",
    "postalCode": "",
    "country": "United Kingdom",
    "phone": "44-(0161)-6432487",
    "website": "",
    "description": "",
    "latitude": 53.54119873046875,
    "longitude": -2.1733999252319336
  },
  {
    "id": "producer_765",
    "sourceId": "765",
    "name": "Lagunitas Brewing Company",
    "type": "producer",
    "address": "1280 North McDowell Boulevard",
    "city": "Petaluma",
    "state": "California",
    "postalCode": "94954",
    "country": "United States",
    "phone": "1-707-769-4495",
    "website": "http://www.lagunitas.com/",
    "description": "",
    "latitude": 38.27239990234375,
    "longitude": -122.66200256347656
  },
  {
    "id": "producer_779",
    "sourceId": "779",
    "name": "Left Hand Brewing Company",
    "type": "producer",
    "address": "1265 Boston Avenue",
    "city": "Longmont",
    "state": "Colorado",
    "postalCode": "80501",
    "country": "United States",
    "phone": "1-303-772-0258",
    "website": "http://www.lefthandbrewing.com/",
    "description": "",
    "latitude": 40.15869903564453,
    "longitude": -105.11299896240234
  },
  {
    "id": "producer_810",
    "sourceId": "810",
    "name": "Mad River Brewing",
    "type": "producer",
    "address": "195 Taylor Way",
    "city": "Blue Lake",
    "state": "California",
    "postalCode": "95525",
    "country": "United States",
    "phone": "1-707-668-4151",
    "website": "",
    "description": "",
    "latitude": 40.87900161743164,
    "longitude": -123.99299621582031
  },
  {
    "id": "producer_812",
    "sourceId": "812",
    "name": "Magic Hat",
    "type": "producer",
    "address": "5 Bartlett Bay Road",
    "city": "South Burlington",
    "state": "Vermont",
    "postalCode": "5403",
    "country": "United States",
    "phone": "1-802-658-2739",
    "website": "http://www.magichat.net/",
    "description": "Burlington microbrewers of Humble Patience, Fat Angel, #9, Blind Faith IPA, and Heart of Darkness Oatmeal Stout.",
    "latitude": 44.42839813232422,
    "longitude": -73.21309661865234
  },
  {
    "id": "producer_869",
    "sourceId": "869",
    "name": "Minneapolis Town Hall Brewery",
    "type": "venue",
    "address": "1430 Washington Avenue South",
    "city": "Minneapolis",
    "state": "Minnesota",
    "postalCode": "55454",
    "country": "United States",
    "phone": "1-612-339-8696",
    "website": "http://www.townhallbrewery.com/",
    "description": "",
    "latitude": 44.973201751708984,
    "longitude": -93.2479019165039
  },
  {
    "id": "producer_878",
    "sourceId": "878",
    "name": "Molson Breweries of Canada",
    "type": "producer",
    "address": "175 Bloor Street East",
    "city": "Toronto",
    "state": "Ontario",
    "postalCode": "0",
    "country": "Canada",
    "phone": "1-416-975-1786",
    "website": "",
    "description": "",
    "latitude": 43.67060089111328,
    "longitude": -79.38240051269531
  },
  {
    "id": "producer_879",
    "sourceId": "879",
    "name": "Montana Brewing",
    "type": "producer",
    "address": "113 North Broadway",
    "city": "Billings",
    "state": "Montana",
    "postalCode": "59101",
    "country": "United States",
    "phone": "1-406-252-9200",
    "website": "",
    "description": "Montana Brewing Company...small brewery...BIG BEER!",
    "latitude": 45.78219985961914,
    "longitude": -108.50599670410156
  },
  {
    "id": "producer_884",
    "sourceId": "884",
    "name": "Moorhouse's Brewery (Burnley)",
    "type": "venue",
    "address": "4 Moorhouse Street",
    "city": "Burnley",
    "state": "Lancashire",
    "postalCode": "",
    "country": "United Kingdom",
    "phone": "44-(01282)-422864",
    "website": "",
    "description": "",
    "latitude": 53.786399841308594,
    "longitude": -2.269399881362915
  },
  {
    "id": "producer_901",
    "sourceId": "901",
    "name": "Nebraska Brewing Company",
    "type": "producer",
    "address": "7474 Towne Center Parkway #101",
    "city": "Papillion",
    "state": "Nebraska",
    "postalCode": "68046",
    "country": "United States",
    "phone": "1-402-934-7100",
    "website": "",
    "description": "",
    "latitude": 37.24399948120117,
    "longitude": -107.87899780273438
  },
  {
    "id": "producer_905",
    "sourceId": "905",
    "name": "New Belgium Brewing",
    "type": "producer",
    "address": "500 Linden Street",
    "city": "Fort Collins",
    "state": "Colorado",
    "postalCode": "80524",
    "country": "United States",
    "phone": "1-888-622-4044",
    "website": "http://www.newbelgium.com/",
    "description": "We'll set the scene: 1989. Belgium. Boy on bike. (OK, make that a young man of 32). As our aspiring young homebrewer rides his mountain bike with fat tires through European villages famous for beer, New Belgium Brewing Company was but a glimmer in his eye. Or basement. For Jeff Lebesch would return to Fort Collins with a handful of ingredients and an imagination full of recipes. And then there was beer. Jeff's first two basement-brewed creations? A brown dubbel with earthy undertones named Abbey and a remarkably well-balanced amber he named Fat Tire. To say the rest was history would be to overlook his wife's involvement. Kim Jordan was New Belgium's first bottler, sales rep, distributor, marketer and financial planner. And now, she's our CEO.",
    "latitude": 40.592899322509766,
    "longitude": -105.06999969482422
  },
  {
    "id": "producer_919",
    "sourceId": "919",
    "name": "North Coast Brewing Company",
    "type": "producer",
    "address": "455 North Main Street",
    "city": "Fort Bragg",
    "state": "California",
    "postalCode": "95437",
    "country": "United States",
    "phone": "1-707-964-2739",
    "website": "http://www.northcoastbrewing.com/home.htm",
    "description": "",
    "latitude": 39.44660186767578,
    "longitude": -123.80599975585938
  },
  {
    "id": "producer_935",
    "sourceId": "935",
    "name": "Odell Brewing",
    "type": "producer",
    "address": "800 East Lincoln Avenue",
    "city": "Fort Collins",
    "state": "Colorado",
    "postalCode": "80524",
    "country": "United States",
    "phone": "1-888-887-2797",
    "website": "",
    "description": "",
    "latitude": 40.58940124511719,
    "longitude": -105.06300354003906
  },
  {
    "id": "producer_63",
    "name": "Independent Producer 63",
    "type": "bar",
    "address": "Street 63",
    "city": "Unknown",
    "country": "Unknown",
    "website": "",
    "description": "Generated producer for drinksreviews dataset.",
    "latitude": null,
    "longitude": null
  },
  {
    "id": "producer_64",
    "name": "Independent Producer 64",
    "type": "winery",
    "address": "Street 64",
    "city": "Unknown",
    "country": "Unknown",
    "website": "",
    "description": "Generated producer for drinksreviews dataset.",
    "latitude": null,
    "longitude": null
  },
  {
    "id": "producer_65",
    "name": "Independent Producer 65",
    "type": "bar",
    "address": "Street 65",
    "city": "Unknown",
    "country": "Unknown",
    "website": "",
    "description": "Generated producer for drinksreviews dataset.",
    "latitude": null,
    "longitude": null
  },
  {
    "id": "producer_66",
    "name": "Independent Producer 66",
    "type": "brewpub",
    "address": "Street 66",
    "city": "Unknown",
    "country": "Unknown",
    "website": "",
    "description": "Generated producer for drinksreviews dataset.",
    "latitude": null,
    "longitude": null
  },
  {
    "id": "producer_67",
    "name": "Independent Producer 67",
    "type": "distillery",
    "address": "Street 67",
    "city": "Unknown",
    "country": "Unknown",
    "website": "",
    "description": "Generated producer for drinksreviews dataset.",
    "latitude": null,
    "longitude": null
  },
  {
    "id": "producer_68",
    "name": "Independent Producer 68",
    "type": "brewpub",
    "address": "Street 68",
    "city": "Unknown",
    "country": "Unknown",
    "website": "",
    "description": "Generated producer for drinksreviews dataset.",
    "latitude": null,
    "longitude": null
  },
  {
    "id": "producer_69",
    "name": "Independent Producer 69",
    "type": "distillery",
    "address": "Street 69",
    "city": "Unknown",
    "country": "Unknown",
    "website": "",
    "description": "Generated producer for drinksreviews dataset.",
    "latitude": null,
    "longitude": null
  },
  {
    "id": "producer_70",
    "name": "Independent Producer 70",
    "type": "brand",
    "address": "Street 70",
    "city": "Unknown",
    "country": "Unknown",
    "website": "",
    "description": "Generated producer for drinksreviews dataset.",
    "latitude": null,
    "longitude": null
  },
  {
    "id": "producer_71",
    "name": "Independent Producer 71",
    "type": "distillery",
    "address": "Street 71",
    "city": "Unknown",
    "country": "Unknown",
    "website": "",
    "description": "Generated producer for drinksreviews dataset.",
    "latitude": null,
    "longitude": null
  },
  {
    "id": "producer_72",
    "name": "Independent Producer 72",
    "type": "brewpub",
    "address": "Street 72",
    "city": "Unknown",
    "country": "Unknown",
    "website": "",
    "description": "Generated producer for drinksreviews dataset.",
    "latitude": null,
    "longitude": null
  },
  {
    "id": "producer_73",
    "name": "Independent Producer 73",
    "type": "brewpub",
    "address": "Street 73",
    "city": "Unknown",
    "country": "Unknown",
    "website": "",
    "description": "Generated producer for drinksreviews dataset.",
    "latitude": null,
    "longitude": null
  },
  {
    "id": "producer_74",
    "name": "Independent Producer 74",
    "type": "brand",
    "address": "Street 74",
    "city": "Unknown",
    "country": "Unknown",
    "website": "",
    "description": "Generated producer for drinksreviews dataset.",
    "latitude": null,
    "longitude": null
  },
  {
    "id": "producer_75",
    "name": "Independent Producer 75",
    "type": "bar",
    "address": "Street 75",
    "city": "Unknown",
    "country": "Unknown",
    "website": "",
    "description": "Generated producer for drinksreviews dataset.",
    "latitude": null,
    "longitude": null
  },
  {
    "id": "producer_76",
    "name": "Independent Producer 76",
    "type": "brewpub",
    "address": "Street 76",
    "city": "Unknown",
    "country": "Unknown",
    "website": "",
    "description": "Generated producer for drinksreviews dataset.",
    "latitude": null,
    "longitude": null
  },
  {
    "id": "producer_77",
    "name": "Independent Producer 77",
    "type": "winery",
    "address": "Street 77",
    "city": "Unknown",
    "country": "Unknown",
    "website": "",
    "description": "Generated producer for drinksreviews dataset.",
    "latitude": null,
    "longitude": null
  },
  {
    "id": "producer_78",
    "name": "Independent Producer 78",
    "type": "distillery",
    "address": "Street 78",
    "city": "Unknown",
    "country": "Unknown",
    "website": "",
    "description": "Generated producer for drinksreviews dataset.",
    "latitude": null,
    "longitude": null
  },
  {
    "id": "producer_79",
    "name": "Independent Producer 79",
    "type": "brand",
    "address": "Street 79",
    "city": "Unknown",
    "country": "Unknown",
    "website": "",
    "description": "Generated producer for drinksreviews dataset.",
    "latitude": null,
    "longitude": null
  },
  {
    "id": "producer_80",
    "name": "Independent Producer 80",
    "type": "bar",
    "address": "Street 80",
    "city": "Unknown",
    "country": "Unknown",
    "website": "",
    "description": "Generated producer for drinksreviews dataset.",
    "latitude": null,
    "longitude": null
  },
  {
    "id": "producer_81",
    "name": "Independent Producer 81",
    "type": "brewpub",
    "address": "Street 81",
    "city": "Unknown",
    "country": "Unknown",
    "website": "",
    "description": "Generated producer for drinksreviews dataset.",
    "latitude": null,
    "longitude": null
  },
  {
    "id": "producer_82",
    "name": "Independent Producer 82",
    "type": "bar",
    "address": "Street 82",
    "city": "Unknown",
    "country": "Unknown",
    "website": "",
    "description": "Generated producer for drinksreviews dataset.",
    "latitude": null,
    "longitude": null
  },
  {
    "id": "producer_83",
    "name": "Independent Producer 83",
    "type": "brand",
    "address": "Street 83",
    "city": "Unknown",
    "country": "Unknown",
    "website": "",
    "description": "Generated producer for drinksreviews dataset.",
    "latitude": null,
    "longitude": null
  },
  {
    "id": "producer_84",
    "name": "Independent Producer 84",
    "type": "brand",
    "address": "Street 84",
    "city": "Unknown",
    "country": "Unknown",
    "website": "",
    "description": "Generated producer for drinksreviews dataset.",
    "latitude": null,
    "longitude": null
  },
  {
    "id": "producer_85",
    "name": "Independent Producer 85",
    "type": "winery",
    "address": "Street 85",
    "city": "Unknown",
    "country": "Unknown",
    "website": "",
    "description": "Generated producer for drinksreviews dataset.",
    "latitude": null,
    "longitude": null
  },
  {
    "id": "producer_86",
    "name": "Independent Producer 86",
    "type": "winery",
    "address": "Street 86",
    "city": "Unknown",
    "country": "Unknown",
    "website": "",
    "description": "Generated producer for drinksreviews dataset.",
    "latitude": null,
    "longitude": null
  },
  {
    "id": "producer_87",
    "name": "Independent Producer 87",
    "type": "brewpub",
    "address": "Street 87",
    "city": "Unknown",
    "country": "Unknown",
    "website": "",
    "description": "Generated producer for drinksreviews dataset.",
    "latitude": null,
    "longitude": null
  },
  {
    "id": "producer_88",
    "name": "Independent Producer 88",
    "type": "brand",
    "address": "Street 88",
    "city": "Unknown",
    "country": "Unknown",
    "website": "",
    "description": "Generated producer for drinksreviews dataset.",
    "latitude": null,
    "longitude": null
  },
  {
    "id": "producer_89",
    "name": "Independent Producer 89",
    "type": "brand",
    "address": "Street 89",
    "city": "Unknown",
    "country": "Unknown",
    "website": "",
    "description": "Generated producer for drinksreviews dataset.",
    "latitude": null,
    "longitude": null
  },
  {
    "id": "producer_90",
    "name": "Independent Producer 90",
    "type": "distillery",
    "address": "Street 90",
    "city": "Unknown",
    "country": "Unknown",
    "website": "",
    "description": "Generated producer for drinksreviews dataset.",
    "latitude": null,
    "longitude": null
  },
  {
    "id": "producer_91",
    "name": "Independent Producer 91",
    "type": "brewpub",
    "address": "Street 91",
    "city": "Unknown",
    "country": "Unknown",
    "website": "",
    "description": "Generated producer for drinksreviews dataset.",
    "latitude": null,
    "longitude": null
  },
  {
    "id": "producer_92",
    "name": "Independent Producer 92",
    "type": "distillery",
    "address": "Street 92",
    "city": "Unknown",
    "country": "Unknown",
    "website": "",
    "description": "Generated producer for drinksreviews dataset.",
    "latitude": null,
    "longitude": null
  },
  {
    "id": "producer_93",
    "name": "Independent Producer 93",
    "type": "winery",
    "address": "Street 93",
    "city": "Unknown",
    "country": "Unknown",
    "website": "",
    "description": "Generated producer for drinksreviews dataset.",
    "latitude": null,
    "longitude": null
  },
  {
    "id": "producer_94",
    "name": "Independent Producer 94",
    "type": "distillery",
    "address": "Street 94",
    "city": "Unknown",
    "country": "Unknown",
    "website": "",
    "description": "Generated producer for drinksreviews dataset.",
    "latitude": null,
    "longitude": null
  },
  {
    "id": "producer_95",
    "name": "Independent Producer 95",
    "type": "distillery",
    "address": "Street 95",
    "city": "Unknown",
    "country": "Unknown",
    "website": "",
    "description": "Generated producer for drinksreviews dataset.",
    "latitude": null,
    "longitude": null
  },
  {
    "id": "producer_96",
    "name": "Independent Producer 96",
    "type": "brewpub",
    "address": "Street 96",
    "city": "Unknown",
    "country": "Unknown",
    "website": "",
    "description": "Generated producer for drinksreviews dataset.",
    "latitude": null,
    "longitude": null
  },
  {
    "id": "producer_97",
    "name": "Independent Producer 97",
    "type": "brewpub",
    "address": "Street 97",
    "city": "Unknown",
    "country": "Unknown",
    "website": "",
    "description": "Generated producer for drinksreviews dataset.",
    "latitude": null,
    "longitude": null
  },
  {
    "id": "producer_98",
    "name": "Independent Producer 98",
    "type": "brewpub",
    "address": "Street 98",
    "city": "Unknown",
    "country": "Unknown",
    "website": "",
    "description": "Generated producer for drinksreviews dataset.",
    "latitude": null,
    "longitude": null
  },
  {
    "id": "producer_99",
    "name": "Independent Producer 99",
    "type": "winery",
    "address": "Street 99",
    "city": "Unknown",
    "country": "Unknown",
    "website": "",
    "description": "Generated producer for drinksreviews dataset.",
    "latitude": null,
    "longitude": null
  },
  {
    "id": "producer_100",
    "name": "Independent Producer 100",
    "type": "brand",
    "address": "Street 100",
    "city": "Unknown",
    "country": "Unknown",
    "website": "",
    "description": "Generated producer for drinksreviews dataset.",
    "latitude": null,
    "longitude": null
  }
]